[
  {
    "list_no": 2,
    "store_name": "ชะอำฟาร์มาซี (Cha-am Pharmacy)",
    "house_no": "74/1",
    "road": "นราทิพย์",
    "sub_district": "ชะอำ",
    "district": "ชะอำ",
    "province": "เพชรบุรี",
    "zipcode": "76120",
    "store_phone": "032471828",
    "latitude": 12.7977746,
    "longitude": 99.9703258,
    "google_maps_url": "https://maps.app.goo.gl/FDSegvJqKy9XxGUK6"
  },
  {
    "list_no": 3,
    "store_name": "รักไทย เภสัชชะอำ (Rugthai Pharmacy Cha-Am)",
    "house_no": "30/33",
    "road": "ราษฎร์พลิ",
    "sub_district": "ชะอำ",
    "district": "ชะอำ",
    "province": "เพชรบุรี",
    "zipcode": "76120",
    "store_phone": "",
    "latitude": 12.7952291,
    "longitude": 99.9695298,
    "google_maps_url": "https://maps.app.goo.gl/ip1U8aU5Ckzp9Q3HA"
  },
  {
    "list_no": 4,
    "store_name": "ทิพวัฒน์เภสัช สาขาหน้าโรงพยาบาลชะอำ",
    "house_no": "-",
    "road": "คลองเทียน",
    "sub_district": "ชะอำ",
    "district": "ชะอำ",
    "province": "เพชรบุรี",
    "zipcode": "76120",
    "store_phone": "032470636",
    "latitude": 12.80924,
    "longitude": 99.9791601,
    "google_maps_url": "https://maps.app.goo.gl/iDfKrVbG3WEhxQ5r8"
  },
  {
    "list_no": 5,
    "store_name": "ศิริเวช 1",
    "house_no": "256/52",
    "road": "รังสิต-ปทุ",
    "sub_district": "ประชาธิปัตย์",
    "district": "ธัญบุรี",
    "province": "ปทุมธานี",
    "zipcode": "12130",
    "store_phone": "0651639563",
    "latitude": 13.9876911,
    "longitude": 100.6136972,
    "google_maps_url": "https://maps.app.goo.gl/WC5SEJokhZCqtji66"
  },
  {
    "list_no": 6,
    "store_name": "ร้านขายยา Zenwa Pharmacy",
    "house_no": "120/3",
    "road": "แจ้งวัฒนะ",
    "sub_district": "บ้านใหม่",
    "district": "ปากเกร็ด",
    "province": "นนทบุรี",
    "zipcode": "11120",
    "store_phone": "029620003",
    "latitude": 13.9127466,
    "longitude": 100.5526082,
    "google_maps_url": "https://maps.app.goo.gl/gFHFnfbMziELPpyC6"
  },
  {
    "list_no": 7,
    "store_name": "ดี-เชน สาขาเซียร์รังสิต",
    "house_no": "-",
    "road": "เซียร์รังสิต",
    "sub_district": "คูคต",
    "district": "ลำลูกกา",
    "province": "ปทุมธานี",
    "zipcode": "12130",
    "store_phone": "0831742955",
    "latitude": 13.9616328,
    "longitude": 100.6228591,
    "google_maps_url": "https://maps.app.goo.gl/1QzfixkvyHHGvUhv6"
  },
  {
    "list_no": 9,
    "store_name": "ร้านยา เอ็กซ์ต้า พลัส สาขาเดอะเลค เมืองทองธานี",
    "house_no": "504",
    "road": "แจ้งวัฒนะ",
    "sub_district": "บ้านใหม่",
    "district": "ปากเกร็ด",
    "province": "นนทบุรี",
    "zipcode": "11120",
    "store_phone": "0918081554",
    "latitude": 13.9205651,
    "longitude": 100.5392464,
    "google_maps_url": "https://maps.app.goo.gl/woTpKQqSMAvqCap77"
  },
  {
    "list_no": 10,
    "store_name": "เภสัชกรเมืองทอง",
    "house_no": "58/113",
    "road": "แจ้งวัฒนะ",
    "sub_district": "บ้านใหม่",
    "district": "ปากเกร็ด",
    "province": "นนทบุรี",
    "zipcode": "11120",
    "store_phone": "025745635",
    "latitude": 13.9055406,
    "longitude": 100.5380871,
    "google_maps_url": "https://maps.app.goo.gl/LMYU1JHcD6fSrkzE8"
  },
  {
    "list_no": 11,
    "store_name": "เภสัชกรเมืองทอง",
    "house_no": "58/113",
    "road": "แจ้งวัฒนะ",
    "sub_district": "บ้านใหม่",
    "district": "ปากเกร็ด",
    "province": "นนทบุรี",
    "zipcode": "11120",
    "store_phone": "025745635",
    "latitude": 13.9055406,
    "longitude": 100.5380871,
    "google_maps_url": "https://maps.app.goo.gl/LMYU1JHcD6fSrkzE8"
  },
  {
    "list_no": 12,
    "store_name": "ร้านยา eXta plus สาขาตลาดเพิ่มทรัพย์",
    "house_no": "-",
    "road": "ถ.พระราม3",
    "sub_district": "บางโพงพาง",
    "district": "ยานนาวา",
    "province": "กรุงเทพมหานคร",
    "zipcode": "10120",
    "store_phone": "0918081707",
    "latitude": 13.6842487,
    "longitude": 100.5261429,
    "google_maps_url": "https://maps.app.goo.gl/xDAgPWe64jzuX3AF9"
  },
  {
    "list_no": 13,
    "store_name": "เอ็กซ์ต้า พลัส ปัญญธารา 2",
    "house_no": "54/3",
    "road": "แจ้งวัฒนะ",
    "sub_district": "บางตลาด",
    "district": "ปากเกร็ด",
    "province": "นนทบุรี",
    "zipcode": "11120",
    "store_phone": "0918082839",
    "latitude": 13.9006827,
    "longitude": 100.5296093,
    "google_maps_url": "https://maps.app.goo.gl/Vidbm9Ac9s8bgTUd7"
  },
  {
    "list_no": 14,
    "store_name": "เมดพลัส (ร้านยาหน้ามอ) MedPlus Pharmacy",
    "house_no": "141",
    "road": "ทรงพล",
    "sub_district": "ลำพญา",
    "district": "เมืองนครปฐม",
    "province": "นครปฐม",
    "zipcode": "73000",
    "store_phone": "0841448989",
    "latitude": 13.8142239,
    "longitude": 100.0400524,
    "google_maps_url": "https://maps.app.goo.gl/7kwgSH2QhDvecUbP8"
  },
  {
    "list_no": 15,
    "store_name": "พิมพ์ผกา (PIMPAKA Pharma)",
    "house_no": "120/2",
    "road": "ลำพญา",
    "sub_district": "ลำพญา",
    "district": "เมืองนครปฐม",
    "province": "นครปฐม",
    "zipcode": "73000",
    "store_phone": "0959694796",
    "latitude": 13.8152634,
    "longitude": 100.0140376,
    "google_maps_url": "https://maps.app.goo.gl/Ae6zyvrZUPeNWrFY8"
  },
  {
    "list_no": 16,
    "store_name": "ฟาร์มา เอ็กเพรส (ข้างเซเว่น รร.สิรินธร)",
    "house_no": "72/11",
    "road": "สนามจันทร์",
    "sub_district": "สนามจันทร์",
    "district": "เมืองนครปฐม",
    "province": "นครปฐม",
    "zipcode": "73000",
    "store_phone": "0955947061",
    "latitude": 13.7879831,
    "longitude": 100.0494175,
    "google_maps_url": "https://maps.app.goo.gl/MLTRwgsQxwcWtHrWA"
  },
  {
    "list_no": 17,
    "store_name": "เบสท์ฟาร์ม่า 2 (ตรงข้าม ม.ศิลปากร สนามจันทร์)",
    "house_no": "23",
    "road": "สนามจันทร์",
    "sub_district": "สนามจันทร์",
    "district": "เมืองนครปฐม",
    "province": "นครปฐม",
    "zipcode": "73000",
    "store_phone": "0989216682",
    "latitude": 13.8149775,
    "longitude": 100.0447594,
    "google_maps_url": "https://maps.app.goo.gl/PavrVdtHAcT8zVQ16"
  },
  {
    "list_no": 16,
    "store_name": "ฟาร์มา เอ็กเพรส (ข้างเซเว่น รร.สิรินธร)",
    "house_no": "72/11",
    "road": "สนามจันทร์",
    "sub_district": "สนามจันทร์",
    "district": "เมืองนครปฐม",
    "province": "นครปฐม",
    "zipcode": "73000",
    "store_phone": "0955947061",
    "latitude": 13.7879831,
    "longitude": 100.0494175,
    "google_maps_url": "https://maps.app.goo.gl/MLTRwgsQxwcWtHrWA"
  },
  {
    "list_no": 17,
    "store_name": "เบสท์ฟาร์ม่า 2 (ตรงข้าม ม.ศิลปากร สนามจันทร์)",
    "house_no": "23",
    "road": "สนามจันทร์",
    "sub_district": "สนามจันทร์",
    "district": "เมืองนครปฐม",
    "province": "นครปฐม",
    "zipcode": "73000",
    "store_phone": "0989216682",
    "latitude": 13.8149775,
    "longitude": 100.0447594,
    "google_maps_url": "https://maps.app.goo.gl/PavrVdtHAcT8zVQ16"
  }
]