[
  {
    "list_no": 2,
    "store_name": "ชะอำฟาร์มาซี (Cha-am Pharmacy)",
    "house_no": "74/1",
    "road": "นราทิพย์",
    "sub_district": "ชะอำ",
    "district": "ชะอำ",
    "province": "เพชรบุรี",
    "zipcode": "76120",
    "store_phone": "032471828",
    "latitude": 12.8003,
    "longitude": 99.9658,
    "google_maps_url": "https://www.google.com/maps/place//data=!4m2!3m1!1s0x30fd037268e6025f:0x5ff1937c69e82486"
  },
  {
    "list_no": 3,
    "store_name": "รักไทย เภสัชชะอำ (Rugthai Pharmacy Cha-Am)",
    "house_no": "30/33",
    "road": "ราษฎร์พลิ",
    "sub_district": "ชะอำ",
    "district": "ชะอำ",
    "province": "เพชรบุรี",
    "zipcode": "76120",
    "store_phone": "",
    "latitude": 12.8012,
    "longitude": 99.9665,
    "google_maps_url": "https://www.google.com/maps/place//data=!4m2!3m1!1s0x30fd034a11e5c053:0xce3faf1ad9e97460"
  },
  {
    "list_no": 4,
    "store_name": "ทิพวัฒน์เภสัช สาขาหน้าโรงพยาบาลชะอำ",
    "house_no": "-",
    "road": "คลองเทียน",
    "sub_district": "ชะอำ",
    "district": "ชะอำ",
    "province": "เพชรบุรี",
    "zipcode": "76120",
    "store_phone": "032470636",
    "latitude": 12.8021,
    "longitude": 99.9672,
    "google_maps_url": "https://www.google.com/maps/place//data=!4m2!3m1!1s0x30fd1cb03b50edd3:0x37e9e186480668ec"
  },
  {
    "list_no": 5,
    "store_name": "ศิริเวช 1 (Sirivej Pharmacy)",
    "house_no": "256/52",
    "road": "รังสิต-ปทุ",
    "sub_district": "ประชาธิปัตย์",
    "district": "ธัญบุรี",
    "province": "ปทุมธานี",
    "zipcode": "12130",
    "store_phone": "0651639563",
    "latitude": 13.9876301,
    "longitude": 100.6137167,
    "google_maps_url": "https://www.google.com/maps/place//data=!4m2!3m1!1s0x30e281dc40bf42e1:0x678858f3f86e2cf5"
  },
  {
    "list_no": 6,
    "store_name": "เอ็กซ์ต้า พลัส สะพานฟ้า รังสิตคลอง 1",
    "house_no": "152",
    "road": "รังสิต-นคร",
    "sub_district": "ประชาธิปัตย์",
    "district": "ธัญบุรี",
    "province": "ปทุมธานี",
    "zipcode": "12130",
    "store_phone": "0845082774",
    "latitude": 13.9871108,
    "longitude": 100.6132959,
    "google_maps_url": "https://www.google.com/maps/place//data=!4m2!3m1!1s0x311d7f0042651a0b:0xcb18daccdb3c7092"
  },
  {
    "list_no": 7,
    "store_name": "ดี-เชน สาขาเซียร์รังสิต",
    "house_no": "-",
    "road": "เซียร์รังสิต",
    "sub_district": "คูคต",
    "district": "ลำลูกกา",
    "province": "ปทุมธานี",
    "zipcode": "12130",
    "store_phone": "0831742955",
    "latitude": 13.9895,
    "longitude": 100.6172,
    "google_maps_url": "https://www.google.com/maps/place//data=!4m2!3m1!1s0x311d7e00fa1acf63:0xda2f464c6b1f7997"
  },
  {
    "list_no": 9,
    "store_name": "เอ็กซ์ต้า พลัส เดอะ เลค เมืองทองธานี",
    "house_no": "504",
    "road": "แจ้งวัฒนะ",
    "sub_district": "บ้านใหม่",
    "district": "ปากเกร็ด",
    "province": "นนทบุรี",
    "zipcode": "11120",
    "store_phone": "0918081554",
    "latitude": 13.9106353,
    "longitude": 100.552453,
    "google_maps_url": "https://www.google.com/maps/place//data=!4m2!3m1!1s0x30e283002b5ed32d:0xe4bb1e4284fca857"
  },
  {
    "list_no": 10,
    "store_name": "เภสัชกรเมืองทอง",
    "house_no": "58/113",
    "road": "แจ้งวัฒนะ",
    "sub_district": "บ้านใหม่",
    "district": "ปากเกร็ด",
    "province": "นนทบุรี",
    "zipcode": "11120",
    "store_phone": "025745635",
    "latitude": 13.9055927,
    "longitude": 100.5381359,
    "google_maps_url": "https://www.google.com/maps/place//data=!4m2!3m1!1s0x30e2837b28303055:0x90f292e4402dc5ee"
  },
  {
    "list_no": 11,
    "store_name": "เภสัชกรเมืองทอง",
    "house_no": "58/113",
    "road": "แจ้งวัฒนะ",
    "sub_district": "บ้านใหม่",
    "district": "ปากเกร็ด",
    "province": "นนทบุรี",
    "zipcode": "11120",
    "store_phone": "025745635",
    "latitude": 13.9055927,
    "longitude": 100.5381359,
    "google_maps_url": "https://www.google.com/maps/place//data=!4m2!3m1!1s0x30e2837b28303055:0x90f292e4402dc5ee"
  },
  {
    "list_no": 12,
    "store_name": "เอ็กซ์ต้า พลัส ธาราสแควร์",
    "house_no": "ม.2",
    "road": "แจ้งวัฒนะ",
    "sub_district": "คลองเกลือ",
    "district": "ปากเกร็ด",
    "province": "นนทบุรี",
    "zipcode": "11120",
    "store_phone": "0918081707",
    "latitude": 13.9109,
    "longitude": 100.5529,
    "google_maps_url": "https://www.google.com/maps/place//data=!4m2!3m1!1s0x30e2830036460065:0x5cd2cb91d241d588"
  },
  {
    "list_no": 13,
    "store_name": "เอ็กซ์ต้า พลัส ปัญญธารา 2",
    "house_no": "54/3",
    "road": "แจ้งวัฒนะ",
    "sub_district": "บางตลาด",
    "district": "ปากเกร็ด",
    "province": "นนทบุรี",
    "zipcode": "11120",
    "store_phone": "0918082839",
    "latitude": 13.9127466,
    "longitude": 100.5526082,
    "google_maps_url": "https://www.google.com/maps/place//data=!4m2!3m1!1s0x30e285000e1e99e7:0xeba69b1fbc5e9e7"
  },
  {
    "list_no": 14,
    "store_name": "เมดพลัส (ร้านยาหน้ามอ) MedPlus Pharmacy",
    "house_no": "141",
    "road": "ทรงพล",
    "sub_district": "ลำพญา",
    "district": "เมืองนครปฐม",
    "province": "นครปฐม",
    "zipcode": "73000",
    "store_phone": "0841448989",
    "latitude": 13.8196,
    "longitude": 100.0624,
    "google_maps_url": "https://www.google.com/maps/place//data=!4m2!3m1!1s0x30e2e5cdbf4a5c99:0xdbe2ba0dc430cf1d"
  },
  {
    "list_no": 15,
    "store_name": "พิมพ์ผกา (PIMPAKA Pharma)",
    "house_no": "120/2",
    "road": "ลำพญา",
    "sub_district": "ลำพญา",
    "district": "เมืองนครปฐม",
    "province": "นครปฐม",
    "zipcode": "73000",
    "store_phone": "0959694796",
    "latitude": 13.8191,
    "longitude": 100.0618,
    "google_maps_url": "https://www.google.com/maps/place//data=!4m2!3m1!1s0x30e2e500655a14b9:0xb6201c59a6f5d2d2"
  },
  {
    "list_no": 16,
    "store_name": "ฟาร์มา เอ็กเพรส (ข้างเซเว่น รร.สิรินธร)",
    "house_no": "72/11",
    "road": "สนามจันทร์",
    "sub_district": "สนามจันทร์",
    "district": "เมืองนครปฐม",
    "province": "นครปฐม",
    "zipcode": "73000",
    "store_phone": "0955947061",
    "latitude": 13.8185,
    "longitude": 100.0609,
    "google_maps_url": "https://www.google.com/maps/place//data=!4m2!3m1!1s0x30e2e7a173bb4c59:0xae67fd3a48717641"
  },
  {
    "list_no": 17,
    "store_name": "เบสท์ฟาร์ม่า 2 (ตรงข้าม ม.ศิลปากร สนามจันทร์)",
    "house_no": "23",
    "road": "สนามจันทร์",
    "sub_district": "สนามจันทร์",
    "district": "เมืองนครปฐม",
    "province": "นครปฐม",
    "zipcode": "73000",
    "store_phone": "0989216682",
    "latitude": 13.8182,
    "longitude": 100.0605,
    "google_maps_url": "https://www.google.com/maps/place//data=!4m2!3m1!1s0x30e2e52609623e3b:0xe9f374dfd6bada42"
  },
  {
    "list_no": 16,
    "store_name": "ฟาร์มา เอ็กเพรส (ข้างเซเว่น รร.สิรินธร)",
    "house_no": "72/11",
    "road": "สนามจันทร์",
    "sub_district": "สนามจันทร์",
    "district": "เมืองนครปฐม",
    "province": "นครปฐม",
    "zipcode": "73000",
    "store_phone": "0955947061",
    "latitude": 13.8185,
    "longitude": 100.0609,
    "google_maps_url": "https://www.google.com/maps/place//data=!4m2!3m1!1s0x30e2e7a173bb4c59:0xae67fd3a48717641"
  },
  {
    "list_no": 17,
    "store_name": "เบสท์ฟาร์ม่า 2 (ตรงข้าม ม.ศิลปากร สนามจันทร์)",
    "house_no": "23",
    "road": "สนามจันทร์",
    "sub_district": "สนามจันทร์",
    "district": "เมืองนครปฐม",
    "province": "นครปฐม",
    "zipcode": "73000",
    "store_phone": "0989216682",
    "latitude": 13.8182,
    "longitude": 100.0605,
    "google_maps_url": "https://www.google.com/maps/place//data=!4m2!3m1!1s0x30e2e52609623e3b:0xe9f374dfd6bada42"
  }
]
